{
  "type": "FeatureCollection",
  "generator": "overpass-turbo",
  "copyright": "The data included in this document is from www.openstreetmap.org. The data is made available under ODbL.",
  "timestamp": "2025-05-27T18:45:16Z",
  "features": [
    {
      "type": "Feature",
      "properties": {
        "@id": "node/26862772",
        "ele": "2962",
        "name": "Weiße Spitze",
        "natural": "peak",
        "prominence": "919",
        "summit:cross": "yes",
        "summit:register": "yes",
        "wikidata": "Q698770",
        "wikipedia": "de:Weiße Spitze"
      },
      "geometry": {
        "type": "Point",
        "coordinates": [
          12.3579692,
          46.8718905
        ]
      },
      "id": "node/26862772"
    },
    {
      "type": "Feature",
      "properties": {
        "@id": "node/26862824",
        "ele": "1866",
        "name": "Einstein",
        "natural": "peak",
        "prominence": "718",
        "ref:avf": "1080",
        "summit:cross": "yes",
        "wikidata": "Q1309274",
        "wikipedia": "de:Einstein (Berg)"
      },
      "geometry": {
        "type": "Point",
        "coordinates": [
          10.5135912,
          47.5223181
        ]
      },
      "id": "node/26862824"
    },
    {
      "type": "Feature",
      "properties": {
        "@id": "node/26862948",
        "alt_name": "Venet",
        "ele": "2512",
        "name": "Glanderspitze",
        "natural": "peak",
        "note": "cross is in a different position and is mapped separately",
        "prominence": "975",
        "summit:cross": "no",
        "summit:register": "yes",
        "wikidata": "Q2512836",
        "wikipedia": "de:Venet (Berg)"
      },
      "geometry": {
        "type": "Point",
        "coordinates": [
          10.6616265,
          47.1485594
        ]
      },
      "id": "node/26862948"
    },
    {
      "type": "Feature",
      "properties": {
        "@id": "node/26863055",
        "ele": "2696",
        "name": "Großer Lafatscher",
        "natural": "peak",
        "prominence": "615",
        "wikidata": "Q290991",
        "wikipedia": "de:Großer Lafatscher"
      },
      "geometry": {
        "type": "Point",
        "coordinates": [
          11.4525659,
          47.3456604
        ]
      },
      "id": "node/26863055"
    },
    {
      "type": "Feature",
      "properties": {
        "@id": "node/26863058",
        "ele": "2362",
        "name": "Großer Rettenstein Kreuzgipfel",
        "natural": "peak",
        "note": "das Kreuz steht nicht am höchsten Punkt, welcher schwer zugänglich etwas weiter südöstlich ist, siehe wikipedia:de",
        "source:ele": "Laserscan",
        "summit:cross": "yes"
      },
      "geometry": {
        "type": "Point",
        "coordinates": [
          12.2962942,
          47.3331104
        ]
      },
      "id": "node/26863058"
    },
    {
      "type": "Feature",
      "properties": {
        "@id": "node/26863070",
        "ele": "2194",
        "name": "Guffertspitze",
        "natural": "peak",
        "prominence": "1143",
        "summit:cross": "yes",
        "wikidata": "Q769643",
        "wikipedia": "de:Guffert"
      },
      "geometry": {
        "type": "Point",
        "coordinates": [
          11.7886399,
          47.5462308
        ]
      },
      "id": "node/26863070"
    },
    {
      "type": "Feature",
      "properties": {
        "@id": "node/26863175",
        "ele": "2299",
        "name": "Hochiss",
        "natural": "peak",
        "prominence": "1359",
        "summit:cross": "yes",
        "summit:register": "yes",
        "wikidata": "Q494163",
        "wikipedia": "de:Hochiss"
      },
      "geometry": {
        "type": "Point",
        "coordinates": [
          11.7648128,
          47.4584505
        ]
      },
      "id": "node/26863175"
    },
    {
      "type": "Feature",
      "properties": {
        "@id": "node/26863178",
        "ele": "2482",
        "name": "Hochkarspitze",
        "natural": "peak",
        "prominence": "662",
        "wikidata": "Q829835",
        "wikipedia": "de:Hochkarspitze (Karwendel)"
      },
      "geometry": {
        "type": "Point",
        "coordinates": [
          11.3500655,
          47.4475006
        ]
      },
      "id": "node/26863178"
    },
    {
      "type": "Feature",
      "properties": {
        "@id": "node/26863185",
        "ele": "2768",
        "name": "Hochplattig",
        "natural": "peak",
        "prominence": "1189",
        "wikidata": "Q873696",
        "wikipedia": "de:Hochplattig"
      },
      "geometry": {
        "type": "Point",
        "coordinates": [
          10.9883727,
          47.353134
        ]
      },
      "id": "node/26863185"
    },
    {
      "type": "Feature",
      "properties": {
        "@id": "node/26863211",
        "ele": "1829",
        "name": "Hohe Salve",
        "natural": "peak",
        "prominence": "1010",
        "wikidata": "Q668367",
        "wikipedia": "de:Hohe Salve"
      },
      "geometry": {
        "type": "Point",
        "coordinates": [
          12.2041746,
          47.4650179
        ]
      },
      "id": "node/26863211"
    },
    {
      "type": "Feature",
      "properties": {
        "@id": "node/26863368",
        "communication:amateur_radio:sota": "OE/TL-028",
        "communication:amateur_radio:sota:points": "6",
        "ele": "1786",
        "name": "Kienberg",
        "natural": "peak",
        "prominence": "883",
        "wikidata": "Q21868380"
      },
      "geometry": {
        "type": "Point",
        "coordinates": [
          11.9491662,
          47.5155551
        ]
      },
      "id": "node/26863368"
    },
    {
      "type": "Feature",
      "properties": {
        "@id": "node/26863393",
        "ele": "2376",
        "name": "Knittelkarspitze",
        "natural": "peak",
        "prominence": "1017",
        "wikidata": "Q1777201",
        "wikipedia": "de:Knittelkarspitze"
      },
      "geometry": {
        "type": "Point",
        "coordinates": [
          10.651023,
          47.375872
        ]
      },
      "id": "node/26863393"
    },
    {
      "type": "Feature",
      "properties": {
        "@id": "node/26863407",
        "alt_name": "Köllenspitze",
        "ele": "2238",
        "name": "Kellenspitze",
        "natural": "peak",
        "prominence": "1088",
        "ref:avf": "1052",
        "wikidata": "Q870423",
        "wikipedia": "de:Kellenspitze"
      },
      "geometry": {
        "type": "Point",
        "coordinates": [
          10.6300956,
          47.4989941
        ]
      },
      "id": "node/26863407"
    },
    {
      "type": "Feature",
      "properties": {
        "@id": "node/26863442",
        "ele": "3148",
        "name": "Kuchenspitze",
        "natural": "peak",
        "source": "GPS",
        "wikidata": "Q19288421",
        "wikipedia": "de:Kuchenspitze"
      },
      "geometry": {
        "type": "Point",
        "coordinates": [
          10.2300323,
          47.0485358
        ]
      },
      "id": "node/26863442"
    },
    {
      "type": "Feature",
      "properties": {
        "@id": "node/26864044",
        "ele": "2553",
        "name": "Namloser Wetterspitze",
        "natural": "peak",
        "prominence": "722",
        "wikidata": "Q874485",
        "wikipedia": "de:Namloser Wetterspitze"
      },
      "geometry": {
        "type": "Point",
        "coordinates": [
          10.6414282,
          47.3231897
        ]
      },
      "id": "node/26864044"
    },
    {
      "type": "Feature",
      "properties": {
        "@id": "node/26864045",
        "ele": "3144",
        "name": "Napfspitz - Cima Cadini",
        "name:de": "Napfspitze",
        "name:it": "Cima Cadini",
        "natural": "peak",
        "wikidata": "Q1964857",
        "wikipedia": "en:Napfspitze (Ahrntal)"
      },
      "geometry": {
        "type": "Point",
        "coordinates": [
          12.0396129,
          47.0600953
        ]
      },
      "id": "node/26864045"
    },
    {
      "type": "Feature",
      "properties": {
        "@id": "node/26864190",
        "description": "Höchster Berg der Lechtaler Alpen und der Nördlichen Kalkalpen",
        "ele": "3036",
        "name": "Parseierspitze",
        "natural": "peak",
        "prominence": "1243",
        "wikidata": "Q697931",
        "wikipedia": "de:Parseierspitze"
      },
      "geometry": {
        "type": "Point",
        "coordinates": [
          10.4782868,
          47.1742592
        ]
      },
      "id": "node/26864190"
    },
    {
      "type": "Feature",
      "properties": {
        "@id": "node/26864445",
        "ele": "2884",
        "name": "Rietzer Grießkogel",
        "natural": "peak",
        "prominence": "867",
        "summit:cross": "yes",
        "summit:register": "yes",
        "wikidata": "Q761945",
        "wikipedia": "de:Rietzer Grießkogel"
      },
      "geometry": {
        "type": "Point",
        "coordinates": [
          11.0589619,
          47.2458277
        ]
      },
      "id": "node/26864445"
    },
    {
      "type": "Feature",
      "properties": {
        "@id": "node/26865019",
        "ele": "2813",
        "name": "Vallüla",
        "natural": "peak",
        "prominence": "775",
        "wikidata": "Q21863712"
      },
      "geometry": {
        "type": "Point",
        "coordinates": [
          10.1128802,
          46.9373037
        ]
      },
      "id": "node/26865019"
    },
    {
      "type": "Feature",
      "properties": {
        "@id": "node/26865080",
        "ele": "3089",
        "name": "Vesulspitze",
        "natural": "peak",
        "wikidata": "Q2521262",
        "wikipedia": "de:Vesulspitze"
      },
      "geometry": {
        "type": "Point",
        "coordinates": [
          10.3491667,
          47.0016667
        ]
      },
      "id": "node/26865080"
    },
    {
      "type": "Feature",
      "properties": {
        "@id": "node/26865118",
        "alt_name": "Vorderunnütz",
        "ele": "2078",
        "name": "Vorderunnutz",
        "natural": "peak",
        "summit:cross": "yes",
        "wikidata": "Q2496641",
        "wikipedia": "de:Unnütze"
      },
      "geometry": {
        "type": "Point",
        "coordinates": [
          11.7385436,
          47.5151016
        ]
      },
      "id": "node/26865118"
    },
    {
      "type": "Feature",
      "properties": {
        "@id": "node/26865127",
        "ele": "1682",
        "name": "Wallerberg",
        "natural": "peak",
        "prominence": "819",
        "wikidata": "Q21863839"
      },
      "geometry": {
        "type": "Point",
        "coordinates": [
          12.535,
          47.5147222
        ]
      },
      "id": "node/26865127"
    },
    {
      "type": "Feature",
      "properties": {
        "@id": "node/26865139",
        "ele": "3768",
        "name": "Wildspitze",
        "name:ru": "Вильдшпитце",
        "natural": "peak",
        "prominence": "2261",
        "source:ele": "Laserscan Höhenmodelle auf https://www.tirol.gv.at",
        "source:prominence": "3768-1507 (Reschenpass)",
        "summit:cross": "yes",
        "wikidata": "Q679277",
        "wikipedia": "de:Wildspitze"
      },
      "geometry": {
        "type": "Point",
        "coordinates": [
          10.867279,
          46.8852429
        ]
      },
      "id": "node/26865139"
    },
    {
      "type": "Feature",
      "properties": {
        "@id": "node/53249194",
        "ele": "1181",
        "name": "Juffinger Jöchl / Paisslberg",
        "natural": "peak",
        "source": "geoimage.at MaxRes",
        "summit:cross": "yes",
        "summit:register": "yes"
      },
      "geometry": {
        "type": "Point",
        "coordinates": [
          12.1394562,
          47.4947929
        ]
      },
      "id": "node/53249194"
    },
    {
      "type": "Feature",
      "properties": {
        "@id": "node/73987193",
        "ele": "1986",
        "name": "Hinteres Sonnwendjoch",
        "natural": "peak",
        "prominence": "949",
        "summit:cross": "yes",
        "wikidata": "Q390493",
        "wikipedia": "de:Hinteres Sonnwendjoch"
      },
      "geometry": {
        "type": "Point",
        "coordinates": [
          11.9496432,
          47.5985791
        ]
      },
      "id": "node/73987193"
    },
    {
      "type": "Feature",
      "properties": {
        "@id": "node/240609170",
        "ele": "2023",
        "name": "Alpkopf",
        "natural": "peak",
        "wikidata": "Q129272009"
      },
      "geometry": {
        "type": "Point",
        "coordinates": [
          10.5702282,
          47.0357643
        ]
      },
      "id": "node/240609170"
    },
    {
      "type": "Feature",
      "properties": {
        "@id": "node/246541691",
        "alt_name": "Wolekleskarspitze;Woleckleskar Spitze",
        "ele": "2522",
        "name": "Woleggleskarspitze",
        "natural": "peak",
        "ref:avf": "1672",
        "wikidata": "Q2588430",
        "wikipedia": "de:Wolekleskarspitze"
      },
      "geometry": {
        "type": "Point",
        "coordinates": [
          10.451459,
          47.3313983
        ]
      },
      "id": "node/246541691"
    },
    {
      "type": "Feature",
      "properties": {
        "@id": "node/246550950",
        "ele": "2489",
        "name": "Wildmahdspitze",
        "natural": "peak",
        "ref:avf": "898",
        "wikidata": "Q1411715",
        "wikipedia": "de:Wildmahdspitze"
      },
      "geometry": {
        "type": "Point",
        "coordinates": [
          10.2969711,
          47.2732488
        ]
      },
      "id": "node/246550950"
    },
    {
      "type": "Feature",
      "properties": {
        "@id": "node/246552639",
        "ele": "2388",
        "name": "Strahlkopf",
        "natural": "peak",
        "ref:avf": "1600",
        "wikidata": "Q830076",
        "wikipedia": "de:Strahlkopf (Allgäuer Alpen)"
      },
      "geometry": {
        "type": "Point",
        "coordinates": [
          10.3591982,
          47.294434
        ]
      },
      "id": "node/246552639"
    },
    {
      "type": "Feature",
      "properties": {
        "@id": "node/246553252",
        "alt_name": "Plattenspitze;Plattenspitzen Ostgipfel",
        "ele": "2488",
        "name": "Östliche Plattenspitze",
        "name:en": "Eastern Plattenspitze",
        "natural": "peak",
        "wikidata": "Q124418971"
      },
      "geometry": {
        "type": "Point",
        "coordinates": [
          10.3944583,
          47.3177283
        ]
      },
      "id": "node/246553252"
    },
    {
      "type": "Feature",
      "properties": {
        "@id": "node/246553295",
        "ele": "2498",
        "name": "Balschtespitze",
        "natural": "peak",
        "ref:avf": "1640",
        "wikidata": "Q805528",
        "wikipedia": "de:Balschtespitze"
      },
      "geometry": {
        "type": "Point",
        "coordinates": [
          10.4177935,
          47.3234996
        ]
      },
      "id": "node/246553295"
    },
    {
      "type": "Feature",
      "properties": {
        "@id": "node/246553311",
        "ele": "2594",
        "name": "Noppenspitze",
        "natural": "peak",
        "ref:avf": "1659",
        "wikidata": "Q1422936",
        "wikipedia": "de:Noppenspitze"
      },
      "geometry": {
        "type": "Point",
        "coordinates": [
          10.4410805,
          47.3258196
        ]
      },
      "id": "node/246553311"
    },
    {
      "type": "Feature",
      "properties": {
        "@id": "node/246769285",
        "ele": "2376",
        "name": "Kreuzeck",
        "name:de_AT": "Kreuzegg",
        "natural": "peak",
        "ref:avf": "1367",
        "wikidata": "Q871952",
        "wikipedia": "de:Kreuzeck (Allgäuer Alpen)"
      },
      "geometry": {
        "type": "Point",
        "coordinates": [
          10.3569087,
          47.3370382
        ]
      },
      "id": "node/246769285"
    },
    {
      "type": "Feature",
      "properties": {
        "@id": "node/249419777",
        "ele": "2648",
        "name": "Schindlerspitze",
        "natural": "peak",
        "wikidata": "Q21878512"
      },
      "geometry": {
        "type": "Point",
        "coordinates": [
          10.2218292,
          47.1494581
        ]
      },
      "id": "node/249419777"
    },
    {
      "type": "Feature",
      "properties": {
        "@id": "node/250065501",
        "ele": "3056",
        "name": "Patteriol",
        "natural": "peak",
        "source": "GPS",
        "wikidata": "Q15124484",
        "wikipedia": "de:Patteriol"
      },
      "geometry": {
        "type": "Point",
        "coordinates": [
          10.1876242,
          47.0441055
        ]
      },
      "id": "node/250065501"
    },
    {
      "type": "Feature",
      "properties": {
        "@id": "node/250067524",
        "communication:amateur_radio:sota": "OE/VB-084",
        "communication:amateur_radio:sota:points": "10",
        "ele": "2676",
        "name": "Gaflunakopf",
        "natural": "peak",
        "source": "GPS",
        "wikidata": "Q21878664"
      },
      "geometry": {
        "type": "Point",
        "coordinates": [
          10.1346157,
          47.0638876
        ]
      },
      "id": "node/250067524"
    },
    {
      "type": "Feature",
      "properties": {
        "@id": "node/250067547",
        "ele": "2611",
        "name": "Pfannseekopf",
        "natural": "peak",
        "source": "GPS",
        "wikidata": "Q21878667"
      },
      "geometry": {
        "type": "Point",
        "coordinates": [
          10.145947,
          47.061067
        ]
      },
      "id": "node/250067547"
    },
    {
      "type": "Feature",
      "properties": {
        "@id": "node/250068159",
        "ele": "3296",
        "name": "Hintere Ölgrubenspitze",
        "natural": "peak",
        "wikidata": "Q946303",
        "wikipedia": "en:Hintere Ölgrubenspitze"
      },
      "geometry": {
        "type": "Point",
        "coordinates": [
          10.7748664,
          46.8907542
        ]
      },
      "id": "node/250068159"
    },
    {
      "type": "Feature",
      "properties": {
        "@id": "node/255973218",
        "ele": "3004",
        "name": "Zischgeles",
        "natural": "peak",
        "summit:cross": "yes",
        "wikidata": "Q206030",
        "wikipedia": "de:Zischgeles"
      },
      "geometry": {
        "type": "Point",
        "coordinates": [
          11.0950077,
          47.1315444
        ]
      },
      "id": "node/255973218"
    },
    {
      "type": "Feature",
      "properties": {
        "@id": "node/255973617",
        "ele": "2541",
        "name": "Großer Solstein",
        "natural": "peak",
        "summit:cross": "yes",
        "wikidata": "Q873196",
        "wikipedia": "de:Großer Solstein"
      },
      "geometry": {
        "type": "Point",
        "coordinates": [
          11.3076615,
          47.3027047
        ]
      },
      "id": "node/255973617"
    },
    {
      "type": "Feature",
      "properties": {
        "@id": "node/256041586",
        "ele": "3008",
        "name": "Acherkogel",
        "natural": "peak",
        "wikidata": "Q871698",
        "wikipedia": "de:Acherkogel"
      },
      "geometry": {
        "type": "Point",
        "coordinates": [
          10.956653,
          47.189208
        ]
      },
      "id": "node/256041586"
    },
    {
      "type": "Feature",
      "properties": {
        "@id": "node/256041587",
        "ele": "2329",
        "ele:source": "photo",
        "name": "Ackerlspitze",
        "natural": "peak",
        "summit:cross": "yes",
        "wikidata": "Q341784",
        "wikipedia": "de:Ackerlspitze"
      },
      "geometry": {
        "type": "Point",
        "coordinates": [
          12.347188,
          47.559125
        ]
      },
      "id": "node/256041587"
    },
    {
      "type": "Feature",
      "properties": {
        "@id": "node/256041591",
        "alt_name": "Ahornspitz",
        "ele": "2976",
        "name": "Ahornspitze",
        "natural": "peak",
        "prominence": "249",
        "wikidata": "Q402568",
        "wikipedia": "de:Ahornspitze"
      },
      "geometry": {
        "type": "Point",
        "coordinates": [
          11.9178032,
          47.1292231
        ]
      },
      "id": "node/256041591"
    },
    {
      "type": "Feature",
      "properties": {
        "@id": "node/256041626",
        "ele": "746",
        "name": "Bergisel",
        "natural": "peak",
        "wikidata": "Q683996",
        "wikipedia": "de:Bergisel"
      },
      "geometry": {
        "type": "Point",
        "coordinates": [
          11.4001368,
          47.2467523
        ]
      },
      "id": "node/256041626"
    },
    {
      "type": "Feature",
      "properties": {
        "@id": "node/256041661",
        "ele": "2700",
        "name": "Brandberger Kolm",
        "natural": "peak",
        "summit:cross": "yes",
        "summit:register": "yes",
        "wikidata": "Q897823"
      },
      "geometry": {
        "type": "Point",
        "coordinates": [
          11.9622122,
          47.1726022
        ]
      },
      "id": "node/256041661"
    },
    {
      "type": "Feature",
      "properties": {
        "@id": "node/256041663",
        "ele": "2032",
        "name": "Brechhorn",
        "natural": "peak",
        "summit:cross": "yes",
        "wikidata": "Q872479",
        "wikipedia": "de:Brechhorn"
      },
      "geometry": {
        "type": "Point",
        "coordinates": [
          12.2662781,
          47.3779817
        ]
      },
      "id": "node/256041663"
    },
    {
      "type": "Feature",
      "properties": {
        "@id": "node/256041666",
        "ele": "2340",
        "name": "Daniel",
        "natural": "peak",
        "prominence": "1233",
        "source": "GPS;local knowledge",
        "summit:cross": "yes",
        "summit:register": "yes",
        "wikidata": "Q365773",
        "wikipedia": "de:Daniel (Berg)"
      },
      "geometry": {
        "type": "Point",
        "coordinates": [
          10.8802309,
          47.4326486
        ]
      },
      "id": "node/256041666"
    },
    {
      "type": "Feature",
      "properties": {
        "@id": "node/256041668",
        "created_by": "Potlatch 0.10c",
        "name": "Debantgrat Nordgipfel",
        "natural": "peak"
      },
      "geometry": {
        "type": "Point",
        "coordinates": [
          12.710005,
          46.9513863
        ]
      },
      "id": "node/256041668"
    },
    {
      "type": "Feature",
      "properties": {
        "@id": "node/256041669",
        "ele": "3565",
        "name": "Vorderer Brochkogel",
        "natural": "peak",
        "wikidata": "Q662901",
        "wikipedia": "de:Vorderer Brochkogel"
      },
      "geometry": {
        "type": "Point",
        "coordinates": [
          10.8508716,
          46.8748856
        ]
      },
      "id": "node/256041669"
    },
    {
      "type": "Feature",
      "properties": {
        "@id": "node/256041672",
        "description": "Zweithöchster Berg der Lechtaler Alpen",
        "ele": "2968",
        "name": "Dawinkopf",
        "natural": "peak",
        "wikidata": "Q639532",
        "wikipedia": "de:Dawinkopf"
      },
      "geometry": {
        "type": "Point",
        "coordinates": [
          10.4730254,
          47.1661288
        ]
      },
      "id": "node/256041672"
    },
    {
      "type": "Feature",
      "properties": {
        "@id": "node/256041675",
        "name": "Eiblschrofen",
        "natural": "peak",
        "wikidata": "Q1301198",
        "wikipedia": "de:Eiblschrofen"
      },
      "geometry": {
        "type": "Point",
        "coordinates": [
          11.7425556,
          47.3470216
        ]
      },
      "id": "node/256041675"
    },
    {
      "type": "Feature",
      "properties": {
        "@id": "node/256041682",
        "ele": "2838",
        "name": "Eisenspitze-Nordgipfel",
        "natural": "peak",
        "note": "dieser Gipfel ist deutlich niedriger als der Südgipfel",
        "source": "Laserscan"
      },
      "geometry": {
        "type": "Point",
        "coordinates": [
          10.4469155,
          47.1633205
        ]
      },
      "id": "node/256041682"
    },
    {
      "type": "Feature",
      "properties": {
        "@id": "node/256041683",
        "ele": "3278",
        "name": "Linker Fernerkogel",
        "natural": "peak",
        "summit:cross": "yes",
        "wikidata": "Q1826832",
        "wikipedia": "de:Linker Fernerkogel"
      },
      "geometry": {
        "type": "Point",
        "coordinates": [
          10.9101317,
          46.9211912
        ]
      },
      "id": "node/256041683"
    },
    {
      "type": "Feature",
      "properties": {
        "@id": "node/256041684",
        "ele": "2499",
        "name": "Östlicher Elferturm",
        "natural": "peak",
        "summit:cross": "yes"
      },
      "geometry": {
        "type": "Point",
        "coordinates": [
          11.3133377,
          47.084574
        ]
      },
      "id": "node/256041684"
    },
    {
      "type": "Feature",
      "properties": {
        "@id": "node/256041685",
        "ele": "3490",
        "name": "Firmisanschneide",
        "natural": "peak",
        "source": "basemap.at",
        "wikidata": "Q663563",
        "wikipedia": "de:Firmisanschneide"
      },
      "geometry": {
        "type": "Point",
        "coordinates": [
          10.9536995,
          46.8197993
        ]
      },
      "id": "node/256041685"
    },
    {
      "type": "Feature",
      "properties": {
        "@id": "node/256041690",
        "ele": "3494",
        "name": "Fluchtkogel",
        "natural": "peak",
        "source": "survey;local knowledge",
        "summit:cross": "yes",
        "summit:register": "yes",
        "wikidata": "Q672961",
        "wikipedia": "de:Fluchtkogel"
      },
      "geometry": {
        "type": "Point",
        "coordinates": [
          10.7921997,
          46.8582269
        ]
      },
      "id": "node/256041690"
    },
    {
      "type": "Feature",
      "properties": {
        "@id": "node/256041693",
        "ele": "3267",
        "name": "Östlicher Feuerstein - Montarso Orientale",
        "name:de": "Östlicher Feuerstein",
        "name:it": "Montarso Orientale",
        "natural": "peak",
        "wikidata": "Q922451",
        "wikipedia": "de:Feuerstein (Stubaier Alpen)"
      },
      "geometry": {
        "type": "Point",
        "coordinates": [
          11.2442192,
          46.9717141
        ]
      },
      "id": "node/256041693"
    },
    {
      "type": "Feature",
      "properties": {
        "@id": "node/256041694",
        "ele": "3514",
        "name": "Finailspitze - Punta di Finale",
        "name:de": "Finailspitze",
        "name:it": "Punta di Finale",
        "natural": "peak",
        "source": "basemap.at",
        "wikidata": "Q544968",
        "wikipedia": "it:Punta di Finale"
      },
      "geometry": {
        "type": "Point",
        "coordinates": [
          10.8319667,
          46.7804143
        ]
      },
      "id": "node/256041694"
    },
    {
      "type": "Feature",
      "properties": {
        "@id": "node/256041696",
        "ele": "3004",
        "name": "Furgler",
        "natural": "peak",
        "summit:cross": "yes",
        "wikidata": "Q876550",
        "wikipedia": "de:Furgler"
      },
      "geometry": {
        "type": "Point",
        "coordinates": [
          10.5118571,
          47.0403264
        ]
      },
      "id": "node/256041696"
    },
    {
      "type": "Feature",
      "properties": {
        "@id": "node/256041700",
        "ele": "2109",
        "name": "Galtjoch",
        "natural": "peak",
        "summit:cross": "yes",
        "wikidata": "Q1492741",
        "wikipedia": "de:Galtjoch"
      },
      "geometry": {
        "type": "Point",
        "coordinates": [
          10.6754778,
          47.3940015
        ]
      },
      "id": "node/256041700"
    },
    {
      "type": "Feature",
      "properties": {
        "@id": "node/256041702",
        "ele": "2424",
        "name": "Großer Galtenberg",
        "name:zh": "大加爾滕山",
        "natural": "peak",
        "wikidata": "Q655945",
        "wikipedia": "de:Großer Galtenberg"
      },
      "geometry": {
        "type": "Point",
        "coordinates": [
          11.9758788,
          47.3368365
        ]
      },
      "id": "node/256041702"
    },
    {
      "type": "Feature",
      "properties": {
        "@id": "node/256041723",
        "communication:amateur_radio:sota": "OE/TL-004",
        "communication:amateur_radio:sota:points": "8",
        "ele": "2161",
        "name": "Geierköpfe-Hauptgipfel",
        "natural": "peak",
        "wikidata": "Q871973",
        "wikipedia": "de:Geierköpfe"
      },
      "geometry": {
        "type": "Point",
        "coordinates": [
          10.8749008,
          47.5191797
        ]
      },
      "id": "node/256041723"
    },
    {
      "type": "Feature",
      "properties": {
        "@id": "node/256041725",
        "ele": "2179",
        "name": "Galzig",
        "natural": "peak",
        "wikidata": "Q492033",
        "wikipedia": "de:Galzig"
      },
      "geometry": {
        "type": "Point",
        "coordinates": [
          10.2241504,
          47.134133
        ]
      },
      "id": "node/256041725"
    },
    {
      "type": "Feature",
      "properties": {
        "@id": "node/256041726",
        "ele": "3125",
        "name": "Gamezkogel",
        "natural": "peak",
        "wikidata": "Q1493116",
        "wikipedia": "de:Gamezkogel"
      },
      "geometry": {
        "type": "Point",
        "coordinates": [
          10.8283333,
          47.0247222
        ]
      },
      "id": "node/256041726"
    },
    {
      "type": "Feature",
      "properties": {
        "@id": "node/256041727",
        "ele": "3001",
        "name": "Gigalitz",
        "natural": "peak",
        "wikidata": "Q1523612",
        "wikipedia": "de:Gigalitz"
      },
      "geometry": {
        "type": "Point",
        "coordinates": [
          11.8908333,
          47.0580556
        ]
      },
      "id": "node/256041727"
    },
    {
      "type": "Feature",
      "properties": {
        "@id": "node/256041729",
        "ele": "2506",
        "name": "Gilfert",
        "natural": "peak",
        "summit:cross": "yes",
        "summit:register": "yes",
        "wikidata": "Q582835",
        "wikipedia": "de:Gilfert"
      },
      "geometry": {
        "type": "Point",
        "coordinates": [
          11.7430179,
          47.2679709
        ]
      },
      "id": "node/256041729"
    },
    {
      "type": "Feature",
      "properties": {
        "@id": "node/256041730",
        "ele": "2486",
        "name": "Große Gamswiesenspitze",
        "natural": "peak",
        "wikidata": "Q1493300",
        "wikipedia": "de:Gamswiesenspitze"
      },
      "geometry": {
        "type": "Point",
        "coordinates": [
          12.7830557,
          46.7663889
        ]
      },
      "id": "node/256041730"
    },
    {
      "type": "Feature",
      "properties": {
        "@id": "node/256041731",
        "ele": "2945",
        "name": "Gatschkopf",
        "natural": "peak",
        "wikidata": "Q875867",
        "wikipedia": "de:Gatschkopf"
      },
      "geometry": {
        "type": "Point",
        "coordinates": [
          10.4893047,
          47.1732212
        ]
      },
      "id": "node/256041731"
    },
    {
      "type": "Feature",
      "properties": {
        "@id": "node/256041732",
        "ele": "3206",
        "name": "Glödis",
        "natural": "peak",
        "summit:cross": "yes",
        "wikidata": "Q1532697",
        "wikipedia": "de:Glödis"
      },
      "geometry": {
        "type": "Point",
        "coordinates": [
          12.7256949,
          46.9612577
        ]
      },
      "id": "node/256041732"
    },
    {
      "type": "Feature",
      "properties": {
        "@id": "node/256041742",
        "ele": "2677",
        "name": "Glungezer",
        "natural": "peak",
        "wikidata": "Q671146",
        "wikipedia": "de:Glungezer"
      },
      "geometry": {
        "type": "Point",
        "coordinates": [
          11.5283837,
          47.2075977
        ]
      },
      "id": "node/256041742"
    },
    {
      "type": "Feature",
      "properties": {
        "@id": "node/256041744",
        "ele": "2242",
        "ele:source": "basemap.at",
        "name": "Vordere Goinger Halt",
        "natural": "peak",
        "summit:cross": "no",
        "summit:register": "yes",
        "wikidata": "Q479108",
        "wikipedia": "de:Goinger Halt"
      },
      "geometry": {
        "type": "Point",
        "coordinates": [
          12.3253687,
          47.5646007
        ]
      },
      "id": "node/256041744"
    },
    {
      "type": "Feature",
      "properties": {
        "@id": "node/256041745",
        "ele": "2173",
        "name": "Gimpel",
        "natural": "peak",
        "ref:avf": "1047",
        "wikidata": "Q872011",
        "wikipedia": "de:Gimpel (Berg)"
      },
      "geometry": {
        "type": "Point",
        "coordinates": [
          10.6125164,
          47.5012736
        ]
      },
      "id": "node/256041745"
    },
    {
      "type": "Feature",
      "properties": {
        "@id": "node/256041748",
        "ele": "1938",
        "name": "Hahnenkamm",
        "natural": "peak",
        "ref:avf": "1071",
        "wikidata": "Q1568912",
        "wikipedia": "de:Hahnenkamm (Tannheimer Berge)"
      },
      "geometry": {
        "type": "Point",
        "coordinates": [
          10.6419887,
          47.4785277
        ]
      },
      "id": "node/256041748"
    },
    {
      "type": "Feature",
      "properties": {
        "@id": "node/256041750",
        "ele": "1712",
        "name": "Hahnenkamm",
        "natural": "peak",
        "wikidata": "Q697928",
        "wikipedia": "de:Hahnenkamm (Kitzbühel)"
      },
      "geometry": {
        "type": "Point",
        "coordinates": [
          12.3649237,
          47.4237932
        ]
      },
      "id": "node/256041750"
    },
    {
      "type": "Feature",
      "properties": {
        "@id": "node/256041751",
        "ele": "2639",
        "name": "Heiterwand",
        "natural": "peak",
        "prominence": "744",
        "wikidata": "Q1601397",
        "wikipedia": "de:Heiterwand"
      },
      "geometry": {
        "type": "Point",
        "coordinates": [
          10.7328934,
          47.3141753
        ]
      },
      "id": "node/256041751"
    },
    {
      "type": "Feature",
      "properties": {
        "@id": "node/256041755",
        "ele": "3287",
        "name": "Breiter Grieskogel",
        "natural": "peak",
        "note": "nach dem Schild am Gipfelkreuz Schreibweise mit s: Breiter Grieskogel",
        "wikidata": "Q873513",
        "wikipedia": "de:Breiter Grießkogel"
      },
      "geometry": {
        "type": "Point",
        "coordinates": [
          11.0226228,
          47.1012558
        ]
      },
      "id": "node/256041755"
    },
    {
      "type": "Feature",
      "properties": {
        "@id": "node/256041782",
        "ele": "2670",
        "name": "Hinterreintalschrofen",
        "natural": "peak",
        "wikidata": "Q515359",
        "wikipedia": "de:Hinterreintalschrofen"
      },
      "geometry": {
        "type": "Point",
        "coordinates": [
          11.0758333,
          47.3961111
        ]
      },
      "id": "node/256041782"
    },
    {
      "type": "Feature",
      "properties": {
        "@id": "node/256041783",
        "ele": "3277",
        "name": "Habicht",
        "natural": "peak",
        "wikidata": "Q613740",
        "wikipedia": "de:Habicht (Berg)"
      },
      "geometry": {
        "type": "Point",
        "coordinates": [
          11.2895399,
          47.0438844
        ]
      },
      "id": "node/256041783"
    },
    {
      "type": "Feature",
      "properties": {
        "@id": "node/256041785",
        "alt_name": "Hartkaser",
        "ele": "1555",
        "name": "Hartkaiser",
        "natural": "peak",
        "wikidata": "Q1587194",
        "wikipedia": "de:Hartkaiser"
      },
      "geometry": {
        "type": "Point",
        "coordinates": [
          12.2716667,
          47.4919444
        ]
      },
      "id": "node/256041785"
    },
    {
      "type": "Feature",
      "properties": {
        "@id": "node/256041792",
        "ele": "3240",
        "name": "Hochschober",
        "natural": "peak",
        "summit:cross": "yes",
        "wikidata": "Q1622049",
        "wikipedia": "de:Hochschober"
      },
      "geometry": {
        "type": "Point",
        "coordinates": [
          12.6982049,
          46.9426141
        ]
      },
      "id": "node/256041792"
    },
    {
      "type": "Feature",
      "properties": {
        "@id": "node/256041798",
        "ele": "3334",
        "ele:source": "GPS",
        "name": "Hintergraslspitzen",
        "natural": "peak",
        "source": "survey",
        "summit:cross": "no",
        "summit:register": "no",
        "wikidata": "Q1248271",
        "wikipedia": "de:Hintergraslspitzen"
      },
      "geometry": {
        "type": "Point",
        "coordinates": [
          10.8107247,
          46.8588786
        ]
      },
      "id": "node/256041798"
    },
    {
      "type": "Feature",
      "properties": {
        "@id": "node/256041813",
        "ele": "3143",
        "name": "Jochköpfl",
        "name:de": "Jochköpfl",
        "name:it": "Corno del Passo",
        "natural": "peak",
        "wikidata": "Q1646318",
        "wikipedia": "de:Jochköpfl"
      },
      "geometry": {
        "type": "Point",
        "coordinates": [
          11.1078766,
          46.9259999
        ]
      },
      "id": "node/256041813"
    },
    {
      "type": "Feature",
      "properties": {
        "@id": "node/256041817",
        "alt_name": "Muttekopf",
        "ele": "2774",
        "name": "Imster Muttekopf",
        "natural": "peak",
        "wikidata": "Q873805",
        "wikipedia": "de:Muttekopf (Parzinn)"
      },
      "geometry": {
        "type": "Point",
        "coordinates": [
          10.65172,
          47.2674515
        ]
      },
      "id": "node/256041817"
    },
    {
      "type": "Feature",
      "properties": {
        "@id": "node/256041825",
        "ele": "3010",
        "name": "Hochreichkopf",
        "natural": "peak",
        "source": "GPS; basemap.at",
        "wikidata": "Q1622011",
        "wikipedia": "de:Hochreichkopf"
      },
      "geometry": {
        "type": "Point",
        "coordinates": [
          10.9697703,
          47.1704527
        ]
      },
      "id": "node/256041825"
    },
    {
      "type": "Feature",
      "properties": {
        "@id": "node/256041827",
        "ele": "3536",
        "name": "Hochvernagtspitze",
        "natural": "peak",
        "source:ele": "Laserscan Höhenmodelle auf https://www.tirol.gv.at",
        "wikidata": "Q672944",
        "wikipedia": "de:Hochvernagtspitze"
      },
      "geometry": {
        "type": "Point",
        "coordinates": [
          10.7969244,
          46.8814307
        ]
      },
      "id": "node/256041827"
    },
    {
      "type": "Feature",
      "properties": {
        "@id": "node/256041828",
        "ele": "2546",
        "name": "Hochnissl",
        "natural": "peak",
        "wikidata": "Q873968",
        "wikipedia": "de:Hochnissl"
      },
      "geometry": {
        "type": "Point",
        "coordinates": [
          11.617999,
          47.3673266
        ]
      },
      "id": "node/256041828"
    },
    {
      "type": "Feature",
      "properties": {
        "@id": "node/256041838",
        "ele": "2145",
        "name": "Nördliches Höllhorn",
        "natural": "peak",
        "ref:avf": "1559",
        "wikidata": "Q1647431",
        "wikipedia": "de:Nördliches Höllhorn"
      },
      "geometry": {
        "type": "Point",
        "coordinates": [
          10.38698,
          47.35946
        ]
      },
      "id": "node/256041838"
    },
    {
      "type": "Feature",
      "properties": {
        "@id": "node/256041848",
        "ele": "2689",
        "name": "Große Kinigat / Monte Cavallino",
        "name:de": "Große Kinigat",
        "name:it": "Monte Cavallino",
        "natural": "peak",
        "summit:cross": "yes",
        "summit:register": "yes",
        "wikidata": "Q675922",
        "wikipedia": "it:Monte Cavallino"
      },
      "geometry": {
        "type": "Point",
        "coordinates": [
          12.5241667,
          46.6755556
        ]
      },
      "id": "node/256041848"
    },
    {
      "type": "Feature",
      "properties": {
        "@id": "node/256041849",
        "ele": "1996",
        "name": "Kitzbüheler Horn",
        "natural": "peak",
        "wikidata": "Q671193",
        "wikipedia": "de:Kitzbüheler Horn"
      },
      "geometry": {
        "type": "Point",
        "coordinates": [
          12.4297939,
          47.476123
        ]
      },
      "id": "node/256041849"
    },
    {
      "type": "Feature",
      "properties": {
        "@id": "node/256041853",
        "ele": "3253",
        "name": "K2",
        "natural": "peak",
        "wikidata": "Q872294",
        "wikipedia": "de:K2 (Ötztaler Alpen)"
      },
      "geometry": {
        "type": "Point",
        "coordinates": [
          10.7940661,
          46.9659125
        ]
      },
      "id": "node/256041853"
    },
    {
      "type": "Feature",
      "properties": {
        "@id": "node/256041862",
        "ele": "2399",
        "name": "Kuhkopf",
        "natural": "peak",
        "wikidata": "Q873280",
        "wikipedia": "de:Kuhkopf (Karwendel)"
      },
      "geometry": {
        "type": "Point",
        "coordinates": [
          11.4561233,
          47.436169
        ]
      },
      "id": "node/256041862"
    },
    {
      "type": "Feature",
      "properties": {
        "@id": "node/256041874",
        "ele": "3081",
        "name": "Keeskopf",
        "natural": "peak",
        "source:position": "data.ktn.gv.at",
        "wikidata": "Q1737766",
        "wikipedia": "de:Keeskopf"
      },
      "geometry": {
        "type": "Point",
        "coordinates": [
          12.7623659,
          46.9510594
        ]
      },
      "id": "node/256041874"
    },
    {
      "type": "Feature",
      "properties": {
        "@id": "node/256041877",
        "ele": "2343",
        "massif": "Tuxer Alpen",
        "name": "Kreuzjoch/Kellerjoch",
        "natural": "peak",
        "prominence": "669",
        "summit:register": "yes",
        "wikidata": "Q877618",
        "wikipedia": "de:Kellerjoch"
      },
      "geometry": {
        "type": "Point",
        "coordinates": [
          11.7705435,
          47.3190551
        ]
      },
      "id": "node/256041877"
    },
    {
      "type": "Feature",
      "properties": {
        "@id": "node/256041880",
        "communication:amateur_radio:sota": "OE/TL-020",
        "communication:amateur_radio:sota:points": "8",
        "ele": "2002",
        "name": "Vordere Kesselschneid",
        "natural": "peak",
        "prominence": "603",
        "summit:cross": "no",
        "wikidata": "Q872754",
        "wikipedia": "de:Vordere Kesselschneid"
      },
      "geometry": {
        "type": "Point",
        "coordinates": [
          12.2778148,
          47.606892
        ]
      },
      "id": "node/256041880"
    },
    {
      "type": "Feature",
      "properties": {
        "@id": "node/256041881",
        "ele": "3155",
        "name": "Kreuzspitze",
        "natural": "peak",
        "summit:cross": "yes",
        "wikidata": "Q872331",
        "wikipedia": "de:Kreuzspitze (Venedigergruppe)"
      },
      "geometry": {
        "type": "Point",
        "coordinates": [
          12.3591005,
          47.0467322
        ]
      },
      "id": "node/256041881"
    },
    {
      "type": "Feature",
      "properties": {
        "@id": "node/256041882",
        "ele": "2558",
        "name": "Kreuzjoch",
        "natural": "peak",
        "prominence": "1051",
        "summit:cross": "yes",
        "wikidata": "Q13668",
        "wikipedia": "de:Kreuzjoch (Kitzbüheler Alpen)"
      },
      "geometry": {
        "type": "Point",
        "coordinates": [
          11.9826003,
          47.2514939
        ]
      },
      "id": "node/256041882"
    },
    {
      "type": "Feature",
      "properties": {
        "@id": "node/256041888",
        "ele": "3373",
        "name": "Nördliche Malhamspitz",
        "natural": "peak",
        "wikidata": "Q1887276",
        "wikipedia": "de:Malhamspitzen"
      },
      "geometry": {
        "type": "Point",
        "coordinates": [
          12.259237,
          47.0493651
        ]
      },
      "id": "node/256041888"
    },
    {
      "type": "Feature",
      "properties": {
        "@id": "node/256041890",
        "ele": "3555",
        "name": "Östliche Marzellspitze",
        "natural": "peak",
        "subject:wikipedia": "de:Marzellspitzen",
        "wikidata": "Q662863",
        "wikipedia": "de:Östliche Marzellspitze"
      },
      "geometry": {
        "type": "Point",
        "coordinates": [
          10.9107249,
          46.7711488
        ]
      },
      "id": "node/256041890"
    },
    {
      "type": "Feature",
      "properties": {
        "@id": "node/256041891",
        "ele": "2609",
        "name": "Marchspitze",
        "natural": "peak",
        "ref:avf": "1614",
        "wikidata": "Q1766896",
        "wikipedia": "de:Marchspitze"
      },
      "geometry": {
        "type": "Point",
        "coordinates": [
          10.3744164,
          47.3151318
        ]
      },
      "id": "node/256041891"
    },
    {
      "type": "Feature",
      "properties": {
        "@id": "node/256041892",
        "alt_name": "Lärchegg",
        "ele": "2123",
        "ele:source": "basemap",
        "inscription": "Zum Gedenken an unsere toten Bergkameraden Ö.A.V. Sekt. Wilder Kaiser",
        "name": "Lärcheck",
        "natural": "peak",
        "summit:cross": "yes",
        "summit:register": "yes",
        "wikidata": "Q871925",
        "wikipedia": "de:Lärchegg"
      },
      "geometry": {
        "type": "Point",
        "coordinates": [
          12.3515446,
          47.569032
        ]
      },
      "id": "node/256041892"
    },
    {
      "type": "Feature",
      "properties": {
        "@id": "node/256041896",
        "ele": "3098",
        "name": "Lasörling",
        "natural": "peak",
        "summit:cross": "yes",
        "wikidata": "Q1631332",
        "wikipedia": "de:Lasörling"
      },
      "geometry": {
        "type": "Point",
        "coordinates": [
          12.3550378,
          46.9759022
        ]
      },
      "id": "node/256041896"
    },
    {
      "type": "Feature",
      "properties": {
        "@id": "node/256041918",
        "ele": "3455",
        "name": "Kreuzspitze",
        "natural": "peak",
        "wikidata": "Q683585",
        "wikipedia": "de:Kreuzspitze (Ötztaler Alpen)"
      },
      "geometry": {
        "type": "Point",
        "coordinates": [
          10.8700598,
          46.8163049
        ]
      },
      "id": "node/256041918"
    },
    {
      "type": "Feature",
      "properties": {
        "@id": "node/256041920",
        "ele": "3110",
        "name": "Luibiskogel",
        "natural": "peak",
        "source": "GPS; basemap.at",
        "wikidata": "Q662888",
        "wikipedia": "de:Luibiskogel"
      },
      "geometry": {
        "type": "Point",
        "coordinates": [
          10.9040158,
          47.0495574
        ]
      },
      "id": "node/256041920"
    },
    {
      "type": "Feature",
      "properties": {
        "@id": "node/256041924",
        "ele": "998",
        "name": "Maistaller Berg",
        "natural": "peak",
        "wikidata": "Q1885920",
        "wikipedia": "de:Maistaller Berg"
      },
      "geometry": {
        "type": "Point",
        "coordinates": [
          12.1312017,
          47.583444
        ]
      },
      "id": "node/256041924"
    },
    {
      "type": "Feature",
      "properties": {
        "@id": "node/256041930",
        "ele": "2523",
        "name": "Oberreintalschrofen",
        "natural": "peak",
        "wikidata": "Q873153",
        "wikipedia": "de:Oberreintalschrofen"
      },
      "geometry": {
        "type": "Point",
        "coordinates": [
          11.1038889,
          47.3955556
        ]
      },
      "id": "node/256041930"
    },
    {
      "type": "Feature",
      "properties": {
        "@id": "node/256041932",
        "ele": "2231",
        "name": "Maukspitze",
        "natural": "peak",
        "summit:cross": "yes",
        "wikidata": "Q489403",
        "wikipedia": "de:Maukspitze"
      },
      "geometry": {
        "type": "Point",
        "coordinates": [
          12.3563668,
          47.5588954
        ]
      },
      "id": "node/256041932"
    },
    {
      "type": "Feature",
      "properties": {
        "@id": "node/256041936",
        "ele": "3162",
        "name": "Mittagskogel",
        "natural": "peak",
        "summit:cross": "yes",
        "wikidata": "Q871984",
        "wikipedia": "de:Mittagskogel (Pitztal)"
      },
      "geometry": {
        "type": "Point",
        "coordinates": [
          10.8718085,
          46.9335443
        ]
      },
      "id": "node/256041936"
    },
    {
      "type": "Feature",
      "properties": {
        "@id": "node/256041950",
        "ele": "3359",
        "name": "Wilde Leck",
        "natural": "peak",
        "source": "GPS",
        "wikidata": "Q871961",
        "wikipedia": "de:Wilde Leck"
      },
      "geometry": {
        "type": "Point",
        "coordinates": [
          11.0622824,
          47.0027395
        ]
      },
      "id": "node/256041950"
    },
    {
      "type": "Feature",
      "properties": {
        "@id": "node/256041952",
        "check_date:summit:register": "2024-11-13",
        "ele": "2651",
        "name": "Hohes Licht",
        "natural": "peak",
        "prominence": "680",
        "ref:avf": "884",
        "summit:cross": "yes",
        "summit:register": "yes",
        "wikidata": "Q524774",
        "wikipedia": "de:Hohes Licht"
      },
      "geometry": {
        "type": "Point",
        "coordinates": [
          10.2760287,
          47.2801709
        ]
      },
      "id": "node/256041952"
    },
    {
      "type": "Feature",
      "properties": {
        "@id": "node/256041957",
        "ele": "2471",
        "name": "Loreakopf",
        "natural": "peak",
        "prominence": "907",
        "wikidata": "Q871804",
        "wikipedia": "de:Loreakopf"
      },
      "geometry": {
        "type": "Point",
        "coordinates": [
          10.7713999,
          47.3541156
        ]
      },
      "id": "node/256041957"
    },
    {
      "type": "Feature",
      "properties": {
        "@id": "node/256041958",
        "ele": "1921",
        "name": "Plumsjoch",
        "natural": "peak",
        "summit:cross": "yes",
        "wikidata": "Q2099712",
        "wikipedia": "de:Plumsjoch"
      },
      "geometry": {
        "type": "Point",
        "coordinates": [
          11.6115008,
          47.4567374
        ]
      },
      "id": "node/256041958"
    },
    {
      "type": "Feature",
      "properties": {
        "@id": "node/256041959",
        "ele": "3528",
        "name": "Mutmalspitze",
        "natural": "peak",
        "source": "estimated from height lines",
        "wikidata": "Q635889",
        "wikipedia": "de:Mutmalspitze"
      },
      "geometry": {
        "type": "Point",
        "coordinates": [
          10.9084967,
          46.7830059
        ]
      },
      "id": "node/256041959"
    },
    {
      "type": "Feature",
      "properties": {
        "@id": "node/256041962",
        "alt_name": "Predigtstuhl",
        "ele": "2234",
        "name": "Predigtstein",
        "natural": "peak",
        "wikidata": "Q945698",
        "wikimedia_commons": "Category:Predigtstuhl (Wetterstein)",
        "wikipedia": "de:Predigtstuhl (Wetterstein)"
      },
      "geometry": {
        "type": "Point",
        "coordinates": [
          11.058048,
          47.3833181
        ]
      },
      "id": "node/256041962"
    },
    {
      "type": "Feature",
      "properties": {
        "@id": "node/256041973",
        "ele": "3285",
        "name": "Großer Mörchner",
        "natural": "peak",
        "wikidata": "Q1548799",
        "wikipedia": "de:Großer Mörchner"
      },
      "geometry": {
        "type": "Point",
        "coordinates": [
          11.8650512,
          47.0313345
        ]
      },
      "id": "node/256041973"
    },
    {
      "type": "Feature",
      "properties": {
        "@id": "node/256041976",
        "alt_name": "Hohe Munde",
        "ele": "2592",
        "name": "Hohe Munde Ostgipfel",
        "natural": "peak",
        "summit:cross": "yes",
        "wikidata": "Q389939",
        "wikipedia": "de:Hohe Munde"
      },
      "geometry": {
        "type": "Point",
        "coordinates": [
          11.0812091,
          47.3462065
        ]
      },
      "id": "node/256041976"
    },
    {
      "type": "Feature",
      "properties": {
        "@id": "node/256041983",
        "ele": "2223",
        "name": "Rappenspitze",
        "natural": "peak",
        "summit:cross": "yes",
        "wikidata": "Q2131650",
        "wikipedia": "de:Rappenspitze (Karwendel)"
      },
      "geometry": {
        "type": "Point",
        "coordinates": [
          11.645741,
          47.4022373
        ]
      },
      "id": "node/256041983"
    },
    {
      "type": "Feature",
      "properties": {
        "@id": "node/256041987",
        "ele": "3549",
        "name": "Großer Ramolkogel",
        "natural": "peak",
        "source": "basemap.at",
        "wikidata": "Q663547",
        "wikipedia": "de:Ramolkogel"
      },
      "geometry": {
        "type": "Point",
        "coordinates": [
          10.9591333,
          46.846794
        ]
      },
      "id": "node/256041987"
    },
    {
      "type": "Feature",
      "properties": {
        "@id": "node/256041991",
        "ele": "2762",
        "name": "Rastkogel",
        "natural": "peak",
        "summit:cross": "yes",
        "summit:register": "yes",
        "wikidata": "Q505144",
        "wikipedia": "de:Rastkogel"
      },
      "geometry": {
        "type": "Point",
        "coordinates": [
          11.7508806,
          47.204304
        ]
      },
      "id": "node/256041991"
    },
    {
      "type": "Feature",
      "properties": {
        "@id": "node/256041993",
        "ele": "2186",
        "ele:source": "basemap.at",
        "name": "Fleischbank",
        "natural": "peak",
        "summit:cross": "yes",
        "wikidata": "Q668380",
        "wikipedia": "de:Fleischbank (Kaisergebirge)"
      },
      "geometry": {
        "type": "Point",
        "coordinates": [
          12.3176963,
          47.5694392
        ]
      },
      "id": "node/256041993"
    },
    {
      "type": "Feature",
      "properties": {
        "@id": "node/256041995",
        "cross": "yes",
        "ele": "1745",
        "name": "Petersköpfl",
        "natural": "peak",
        "summit:cross": "yes",
        "summit:register": "yes",
        "wikidata": "Q784154",
        "wikipedia": "de:Petersköpfl"
      },
      "geometry": {
        "type": "Point",
        "coordinates": [
          12.2463971,
          47.6089803
        ]
      },
      "id": "node/256041995"
    },
    {
      "type": "Feature",
      "properties": {
        "@id": "node/256041996",
        "ele": "3064",
        "name": "Hoher Prijakt",
        "natural": "peak",
        "wikidata": "Q2109676",
        "wikipedia": "de:Prijakt"
      },
      "geometry": {
        "type": "Point",
        "coordinates": [
          12.7123631,
          46.9157491
        ]
      },
      "id": "node/256041996"
    },
    {
      "type": "Feature",
      "properties": {
        "@id": "node/256041999",
        "ele": "1563",
        "name": "Pendling",
        "natural": "peak",
        "summit:cross": "yes",
        "wikidata": "Q602129",
        "wikipedia": "de:Pendling"
      },
      "geometry": {
        "type": "Point",
        "coordinates": [
          12.109017,
          47.5712519
        ]
      },
      "id": "node/256041999"
    },
    {
      "type": "Feature",
      "properties": {
        "@id": "node/256042002",
        "ele": "2246",
        "name": "Patscherkofel",
        "natural": "peak",
        "summit:cross": "yes",
        "wikidata": "Q695264",
        "wikipedia": "de:Patscherkofel"
      },
      "geometry": {
        "type": "Point",
        "coordinates": [
          11.4606079,
          47.2088279
        ]
      },
      "id": "node/256042002"
    },
    {
      "type": "Feature",
      "properties": {
        "@id": "node/256042004",
        "ele": "3559",
        "name": "Rainerhorn",
        "natural": "peak",
        "wikidata": "Q874774",
        "wikipedia": "de:Rainerhorn"
      },
      "geometry": {
        "type": "Point",
        "coordinates": [
          12.3641464,
          47.1008482
        ]
      },
      "id": "node/256042004"
    },
    {
      "type": "Feature",
      "properties": {
        "@id": "node/256042007",
        "ele": "3345",
        "name": "Puitkogel",
        "natural": "peak",
        "source": "GPS",
        "wikidata": "Q675846",
        "wikipedia": "de:Puitkogel"
      },
      "geometry": {
        "type": "Point",
        "coordinates": [
          10.9011992,
          46.9814659
        ]
      },
      "id": "node/256042007"
    },
    {
      "type": "Feature",
      "properties": {
        "@id": "node/256042734",
        "alt_name": "Regalpspitze",
        "ele": "2253",
        "name": "Regalmspitze",
        "natural": "peak",
        "wikidata": "Q872518",
        "wikipedia": "de:Regalmspitze"
      },
      "geometry": {
        "type": "Point",
        "coordinates": [
          12.3390054,
          47.5566161
        ]
      },
      "id": "node/256042734"
    },
    {
      "type": "Feature",
      "properties": {
        "@id": "node/256042739",
        "ele": "3166",
        "name": "Hoher Riffler (Süd)",
        "natural": "peak",
        "wikidata": "Q688775",
        "wikipedia": "de:Hoher Riffler (Verwallgruppe)"
      },
      "geometry": {
        "type": "Point",
        "coordinates": [
          10.3709728,
          47.1159685
        ]
      },
      "id": "node/256042739"
    },
    {
      "type": "Feature",
      "properties": {
        "@id": "node/256042740",
        "ele": "3231",
        "name": "Hoher Riffler",
        "natural": "peak",
        "prominence": "327",
        "summit:cross": "yes",
        "summit:register": "yes",
        "wikidata": "Q685588",
        "wikipedia": "de:Hoher Riffler (Zillertaler Alpen)"
      },
      "geometry": {
        "type": "Point",
        "coordinates": [
          11.7043401,
          47.0813161
        ]
      },
      "id": "node/256042740"
    },
    {
      "type": "Feature",
      "properties": {
        "@id": "node/256042743",
        "ele": "2749",
        "name": "Rostocker Eck",
        "natural": "peak",
        "summit:cross": "yes",
        "wikidata": "Q2167856",
        "wikipedia": "de:Rostocker Eck"
      },
      "geometry": {
        "type": "Point",
        "coordinates": [
          12.2876843,
          47.0501914
        ]
      },
      "id": "node/256042743"
    },
    {
      "type": "Feature",
      "properties": {
        "@id": "node/256042744",
        "ele": "2108",
        "name": "Rote Flüh",
        "natural": "peak",
        "ref:avf": "1041",
        "summit:cross": "yes",
        "summit:register": "yes",
        "wikidata": "Q323478",
        "wikipedia": "de:Rote Flüh"
      },
      "geometry": {
        "type": "Point",
        "coordinates": [
          10.6085088,
          47.4995774
        ]
      },
      "id": "node/256042744"
    },
    {
      "type": "Feature",
      "properties": {
        "@id": "node/256042745",
        "ele": "2820",
        "name": "Rote Säule",
        "natural": "peak",
        "wikidata": "Q2168259",
        "wikipedia": "de:Rote Säule (Wallhornkamm)"
      },
      "geometry": {
        "type": "Point",
        "coordinates": [
          12.3498374,
          47.0397249
        ]
      },
      "id": "node/256042745"
    },
    {
      "type": "Feature",
      "properties": {
        "@id": "node/256042746",
        "ele": "3281",
        "name": "Roter Knopf",
        "natural": "peak",
        "summit:cross": "yes",
        "wikidata": "Q1635399",
        "wikipedia": "de:Roter Knopf"
      },
      "geometry": {
        "type": "Point",
        "coordinates": [
          12.7389557,
          46.9787875
        ]
      },
      "id": "node/256042746"
    },
    {
      "type": "Feature",
      "properties": {
        "@id": "node/256042749",
        "ele": "3474",
        "name": "Ruderhofspitze",
        "natural": "peak",
        "source": "survey",
        "wikidata": "Q672988",
        "wikipedia": "de:Ruderhofspitze"
      },
      "geometry": {
        "type": "Point",
        "coordinates": [
          11.1430784,
          47.0397862
        ]
      },
      "id": "node/256042749"
    },
    {
      "type": "Feature",
      "properties": {
        "@id": "node/256042756",
        "ele": "3039",
        "name": "Saumspitze",
        "natural": "peak",
        "source": "GPS",
        "wikidata": "Q676445",
        "wikipedia": "de:Saumspitze"
      },
      "geometry": {
        "type": "Point",
        "coordinates": [
          10.2696446,
          47.0508706
        ]
      },
      "id": "node/256042756"
    },
    {
      "type": "Feature",
      "properties": {
        "@id": "node/256042757",
        "ele": "3537",
        "name": "Schalfkogel",
        "natural": "peak",
        "source": "basemap.at",
        "summit:cross": "yes",
        "wikidata": "Q671590",
        "wikipedia": "de:Schalfkogel"
      },
      "geometry": {
        "type": "Point",
        "coordinates": [
          10.9590789,
          46.8017625
        ]
      },
      "id": "node/256042757"
    },
    {
      "type": "Feature",
      "properties": {
        "@id": "node/256042759",
        "ele": "2111",
        "name": "Scheffauer",
        "natural": "peak",
        "summit:cross": "yes",
        "summit:register": "yes",
        "wikidata": "Q442440",
        "wikipedia": "de:Scheffauer"
      },
      "geometry": {
        "type": "Point",
        "coordinates": [
          12.2418396,
          47.5573214
        ]
      },
      "id": "node/256042759"
    },
    {
      "type": "Feature",
      "properties": {
        "@id": "node/256042760",
        "ele": "3332",
        "name": "Schaufelspitze",
        "natural": "peak",
        "wikidata": "Q616391",
        "wikimedia_commons": "Category:Schaufelspitze (Stubaier Alpen)",
        "wikipedia": "de:Schaufelspitze (Stubaier Alpen)"
      },
      "geometry": {
        "type": "Point",
        "coordinates": [
          11.1156801,
          46.9784524
        ]
      },
      "id": "node/256042760"
    },
    {
      "type": "Feature",
      "properties": {
        "@id": "node/256042763",
        "ele": "2827",
        "name": "Große Schlenkerspitze",
        "natural": "peak",
        "wikidata": "Q871997",
        "wikipedia": "de:Große Schlenkerspitze"
      },
      "geometry": {
        "type": "Point",
        "coordinates": [
          10.6154437,
          47.2490671
        ]
      },
      "id": "node/256042763"
    },
    {
      "type": "Feature",
      "properties": {
        "@id": "node/256042765",
        "ele": "3476",
        "name": "Schneewinkelkopf",
        "natural": "peak",
        "source:ele": "basemap.at",
        "source:position": "data.ktn.gv.at",
        "wikidata": "Q569831",
        "wikipedia": "de:Schneewinkelkopf"
      },
      "geometry": {
        "type": "Point",
        "coordinates": [
          12.6600148,
          47.0973174
        ]
      },
      "id": "node/256042765"
    },
    {
      "type": "Feature",
      "properties": {
        "@id": "node/256042766",
        "ele": "3133",
        "name": "Schönbichler Horn",
        "natural": "peak",
        "summit:cross": "yes",
        "summit:register": "yes",
        "wikidata": "Q1442233",
        "wikipedia": "de:Schönbichler Horn"
      },
      "geometry": {
        "type": "Point",
        "coordinates": [
          11.7730357,
          47.0086652
        ]
      },
      "id": "node/256042766"
    },
    {
      "type": "Feature",
      "properties": {
        "@id": "node/256042768",
        "ele": "2874",
        "name": "Schneefernerkopf",
        "natural": "peak",
        "wikidata": "Q679080",
        "wikimedia_commons": "Category:Schneefernerkopf",
        "wikipedia": "de:Schneefernerkopf"
      },
      "geometry": {
        "type": "Point",
        "coordinates": [
          10.9699595,
          47.4095968
        ]
      },
      "id": "node/256042768"
    },
    {
      "type": "Feature",
      "properties": {
        "@id": "node/256042769",
        "ele": "3392",
        "name": "Schrandele",
        "natural": "peak",
        "source": "basemap.at",
        "wikidata": "Q596016",
        "wikipedia": "de:Schrandele"
      },
      "geometry": {
        "type": "Point",
        "coordinates": [
          11.1117885,
          47.0547828
        ]
      },
      "id": "node/256042769"
    },
    {
      "type": "Feature",
      "properties": {
        "@id": "node/256042770",
        "ele": "3497",
        "name": "Schrankogel",
        "natural": "peak",
        "summit:cross": "yes",
        "wikidata": "Q684613",
        "wikipedia": "de:Schrankogel"
      },
      "geometry": {
        "type": "Point",
        "coordinates": [
          11.098894,
          47.0442042
        ]
      },
      "id": "node/256042770"
    },
    {
      "type": "Feature",
      "properties": {
        "@id": "node/256042771",
        "ele": "3002",
        "name": "Schöntalspitze",
        "natural": "peak",
        "source": "GPS",
        "summit:cross": "yes",
        "summit:register": "yes",
        "wikidata": "Q2259490",
        "wikipedia": "de:Schöntalspitze"
      },
      "geometry": {
        "type": "Point",
        "coordinates": [
          11.0944998,
          47.1222032
        ]
      },
      "id": "node/256042771"
    },
    {
      "type": "Feature",
      "properties": {
        "@id": "node/256042788",
        "ele": "3379",
        "name": "Schwabenkopf",
        "natural": "peak",
        "source": "estimated from height lines",
        "wikidata": "Q874009",
        "wikipedia": "de:Schwabenkopf"
      },
      "geometry": {
        "type": "Point",
        "coordinates": [
          10.7936111,
          47.0066667
        ]
      },
      "id": "node/256042788"
    },
    {
      "type": "Feature",
      "properties": {
        "@id": "node/256042791",
        "ele": "3063",
        "name": "Mittlerer Seekarkopf",
        "natural": "peak",
        "wikidata": "Q662843",
        "wikipedia": "de:Seekarköpfe"
      },
      "geometry": {
        "type": "Point",
        "coordinates": [
          10.6191667,
          46.8736111
        ]
      },
      "id": "node/256042791"
    },
    {
      "type": "Feature",
      "properties": {
        "@id": "node/256042792",
        "ele": "2881",
        "name": "Schweikert",
        "natural": "peak",
        "source": "estimated from height lines",
        "summit:cross": "yes",
        "wikidata": "Q2255608",
        "wikipedia": "de:Schweikert (Kaunertal)"
      },
      "geometry": {
        "type": "Point",
        "coordinates": [
          10.773395,
          47.0334776
        ]
      },
      "id": "node/256042792"
    },
    {
      "type": "Feature",
      "properties": {
        "@id": "node/256042795",
        "ele": "3475",
        "name": "Hinterer Seelenkogel - Cima delle Anime",
        "name:de": "Hinterer Seelenkogel",
        "name:it": "Cima delle Anime",
        "natural": "peak",
        "source": "https://www.passeier.org/archiv/passeier/passeier-panorama.pdf",
        "summit:cross": "yes",
        "summit:register": "yes",
        "wikidata": "Q673009",
        "wikipedia": "it:Cima delle Anime"
      },
      "geometry": {
        "type": "Point",
        "coordinates": [
          11.0443642,
          46.8015987
        ]
      },
      "id": "node/256042795"
    },
    {
      "type": "Feature",
      "properties": {
        "@id": "node/256042801",
        "alt_name": "Waldrastspitze",
        "ele": "2717",
        "name": "Serles",
        "natural": "peak",
        "summit:cross": "yes",
        "wikidata": "Q357751",
        "wikimedia_commons": "Category:Serles",
        "wikipedia": "de:Serles"
      },
      "geometry": {
        "type": "Point",
        "coordinates": [
          11.3813481,
          47.1239628
        ]
      },
      "id": "node/256042801"
    },
    {
      "type": "Feature",
      "properties": {
        "@id": "node/256042802",
        "ele": "3354",
        "name": "Westliche Seespitze",
        "natural": "peak",
        "wikidata": "Q1414717",
        "wikipedia": "de:Westliche Seespitze"
      },
      "geometry": {
        "type": "Point",
        "coordinates": [
          11.1425,
          47.0475
        ]
      },
      "id": "node/256042802"
    },
    {
      "type": "Feature",
      "properties": {
        "@id": "node/256042805",
        "ele": "3444",
        "name": "Sonklarspitze - Cima di Malavalle",
        "name:de": "Sonklarspitze",
        "name:it": "Cima di Malavalle",
        "natural": "peak",
        "summit:cross": "yes",
        "wikidata": "Q664190",
        "wikipedia": "de:Sonklarspitze"
      },
      "geometry": {
        "type": "Point",
        "coordinates": [
          11.1645408,
          46.9562776
        ]
      },
      "id": "node/256042805"
    },
    {
      "type": "Feature",
      "properties": {
        "@id": "node/256042807",
        "alt_name": "Sorgschrofen Hauptgipfel;Steinenberg",
        "ele": "1636",
        "name": "Sorgschrofen",
        "natural": "peak",
        "ref:avf": "971;973",
        "summit:cross": "yes",
        "wikidata": "Q130739105"
      },
      "geometry": {
        "type": "Point",
        "coordinates": [
          10.454449,
          47.5558382
        ]
      },
      "id": "node/256042807"
    },
    {
      "type": "Feature",
      "properties": {
        "@id": "node/256042809",
        "ele": "2458",
        "name": "Sonnjoch",
        "natural": "peak",
        "prominence": "625",
        "summit:cross": "yes",
        "wikidata": "Q873527",
        "wikipedia": "de:Sonnjoch"
      },
      "geometry": {
        "type": "Point",
        "coordinates": [
          11.6051374,
          47.4123801
        ]
      },
      "id": "node/256042809"
    },
    {
      "type": "Feature",
      "properties": {
        "@id": "node/256042810",
        "alt_name": "Ehrwalder Sonnenspitze",
        "ele": "2416",
        "name": "Sonnenspitze",
        "natural": "peak",
        "wikidata": "Q1300944",
        "wikipedia": "de:Ehrwalder Sonnenspitze"
      },
      "geometry": {
        "type": "Point",
        "coordinates": [
          10.921911,
          47.3682476
        ]
      },
      "id": "node/256042810"
    },
    {
      "type": "Feature",
      "properties": {
        "@id": "node/256042813",
        "ele": "3288",
        "name": "Strahlkogel",
        "natural": "peak",
        "wikidata": "Q577249",
        "wikipedia": "de:Strahlkogel"
      },
      "geometry": {
        "type": "Point",
        "coordinates": [
          11.0195215,
          47.1090332
        ]
      },
      "id": "node/256042813"
    },
    {
      "type": "Feature",
      "properties": {
        "@id": "node/256042814",
        "ele": "1807",
        "name": "Stripsenkopf",
        "natural": "peak",
        "summit:register": "yes",
        "wikidata": "Q2356437",
        "wikipedia": "de:Stripsenkopf"
      },
      "geometry": {
        "type": "Point",
        "coordinates": [
          12.3082773,
          47.5820342
        ]
      },
      "id": "node/256042814"
    },
    {
      "type": "Feature",
      "properties": {
        "@id": "node/256042816",
        "ele": "3426",
        "name": "Hinterer Spiegelkogel",
        "natural": "peak",
        "wikidata": "Q664235",
        "wikipedia": "de:Spiegelkogel"
      },
      "geometry": {
        "type": "Point",
        "coordinates": [
          10.9588303,
          46.8292483
        ]
      },
      "id": "node/256042816"
    },
    {
      "type": "Feature",
      "properties": {
        "@id": "node/256042818",
        "ele": "2215",
        "name": "Steinbergstein",
        "natural": "peak",
        "source": "survey",
        "wikidata": "Q462500",
        "wikipedia": "de:Steinbergstein"
      },
      "geometry": {
        "type": "Point",
        "coordinates": [
          12.190085,
          47.3414365
        ]
      },
      "id": "node/256042818"
    },
    {
      "type": "Feature",
      "properties": {
        "@id": "node/256042823",
        "ele": "3341",
        "name": "Stubaier Wildspitze",
        "natural": "peak",
        "wikidata": "Q222144",
        "wikipedia": "de:Stubaier Wildspitze"
      },
      "geometry": {
        "type": "Point",
        "coordinates": [
          11.099443,
          46.983073
        ]
      },
      "id": "node/256042823"
    },
    {
      "type": "Feature",
      "properties": {
        "@id": "node/256042828",
        "ele": "3097",
        "name": "Pflerscher Tribulaun - Tribulaun di Fleres",
        "name:de": "Pflerscher Tribulaun",
        "name:it": "Tribulaun di Fleres",
        "natural": "peak",
        "wikidata": "Q2084247",
        "wikipedia": "de:Pflerscher Tribulaun"
      },
      "geometry": {
        "type": "Point",
        "coordinates": [
          11.3388907,
          46.9852899
        ]
      },
      "id": "node/256042828"
    },
    {
      "type": "Feature",
      "properties": {
        "@id": "node/256042829",
        "ele": "2306",
        "inscription": "Treffauer 2306m - Zum Andenken an unsere verunglückten Bergrettungsmänner",
        "name": "Treffauer",
        "natural": "peak",
        "source:ele": "summit:cross",
        "summit:cross": "yes",
        "summit:register": "yes",
        "wikidata": "Q431070",
        "wikipedia": "de:Treffauer"
      },
      "geometry": {
        "type": "Point",
        "coordinates": [
          12.291484,
          47.5553498
        ]
      },
      "id": "node/256042829"
    },
    {
      "type": "Feature",
      "properties": {
        "@id": "node/256042830",
        "ele": "2372",
        "name": "Tschirgant",
        "natural": "peak",
        "prominence": "1263",
        "summit:cross": "yes",
        "wikidata": "Q178629",
        "wikipedia": "de:Tschirgant"
      },
      "geometry": {
        "type": "Point",
        "coordinates": [
          10.7963916,
          47.2416948
        ]
      },
      "id": "node/256042830"
    },
    {
      "type": "Feature",
      "properties": {
        "@id": "node/256042831",
        "ele": "2902",
        "name": "Großer Trögler",
        "natural": "peak",
        "wikidata": "Q616731",
        "wikimedia_commons": "Category:Großer Trögler",
        "wikipedia": "de:Großer Trögler"
      },
      "geometry": {
        "type": "Point",
        "coordinates": [
          11.1603469,
          46.995677
        ]
      },
      "id": "node/256042831"
    },
    {
      "type": "Feature",
      "properties": {
        "@id": "node/256042832",
        "ele": "2408",
        "name": "Thurntaler",
        "natural": "peak",
        "wikidata": "Q1297168",
        "wikipedia": "de:Thurntaler"
      },
      "geometry": {
        "type": "Point",
        "coordinates": [
          12.3829073,
          46.7745215
        ]
      },
      "id": "node/256042832"
    },
    {
      "type": "Feature",
      "properties": {
        "@id": "node/256042833",
        "ele": "721",
        "name": "Thierberg",
        "natural": "peak",
        "wikidata": "Q872013",
        "wikipedia": "de:Thierberg (Tirol)"
      },
      "geometry": {
        "type": "Point",
        "coordinates": [
          12.1647833,
          47.6003181
        ]
      },
      "id": "node/256042833"
    },
    {
      "type": "Feature",
      "properties": {
        "@id": "node/256042834",
        "ele": "2190",
        "name": "Totenkirchl",
        "natural": "peak",
        "source": "geoimage.at MaxRes",
        "wikidata": "Q337660",
        "wikipedia": "de:Totenkirchl"
      },
      "geometry": {
        "type": "Point",
        "coordinates": [
          12.3119444,
          47.57
        ]
      },
      "id": "node/256042834"
    },
    {
      "type": "Feature",
      "properties": {
        "@id": "node/256042835",
        "alt_name": "Urbeleskarspitze Ostgipfel",
        "ele": "2631",
        "name": "Urbeleskarspitze",
        "natural": "peak",
        "wikidata": "Q130566005"
      },
      "geometry": {
        "type": "Point",
        "coordinates": [
          10.4684011,
          47.3368069
        ]
      },
      "id": "node/256042835"
    },
    {
      "type": "Feature",
      "properties": {
        "@id": "node/256042837",
        "ele": "2812",
        "name": "Piz Val Gronda",
        "natural": "peak",
        "wikidata": "Q2097584",
        "wikipedia": "de:Piz Val Gronda (Samnaungruppe)"
      },
      "geometry": {
        "type": "Point",
        "coordinates": [
          10.2909586,
          46.9232667
        ]
      },
      "id": "node/256042837"
    },
    {
      "type": "Feature",
      "properties": {
        "@id": "node/256042838",
        "ele": "3554",
        "name": "Ötztaler Urkund",
        "natural": "peak",
        "wikidata": "Q307493",
        "wikipedia": "de:Ötztaler Urkund"
      },
      "geometry": {
        "type": "Point",
        "coordinates": [
          10.8735642,
          46.8807563
        ]
      },
      "id": "node/256042838"
    },
    {
      "type": "Feature",
      "properties": {
        "@id": "node/256042839",
        "alt_name": "Hochunnütz",
        "ele": "2075",
        "name": "Hochunnutz",
        "natural": "peak",
        "summit:cross": "yes",
        "summit:register": "yes",
        "wikidata": "Q2496641",
        "wikipedia": "de:Unnütze"
      },
      "geometry": {
        "type": "Point",
        "coordinates": [
          11.735936,
          47.5199844
        ]
      },
      "id": "node/256042839"
    },
    {
      "type": "Feature",
      "properties": {
        "@id": "node/256042842",
        "communication:amateur_radio:sota": "OE/TL-046",
        "communication:amateur_radio:sota:points": "4",
        "ele": "1187",
        "name": "Unterberg",
        "natural": "peak",
        "wikidata": "Q2497248",
        "wikipedia": "de:Unterberg (Waidringer Alpen)"
      },
      "geometry": {
        "type": "Point",
        "coordinates": [
          12.6038889,
          47.5105556
        ]
      },
      "id": "node/256042842"
    },
    {
      "type": "Feature",
      "properties": {
        "@id": "node/256042843",
        "ele": "2493",
        "name": "Wannig",
        "natural": "peak",
        "prominence": "704",
        "summit:cross": "yes",
        "summit:register": "yes",
        "wikidata": "Q875458",
        "wikipedia": "de:Wannig (Berg)"
      },
      "geometry": {
        "type": "Point",
        "coordinates": [
          10.8621255,
          47.3366281
        ]
      },
      "id": "node/256042843"
    },
    {
      "type": "Feature",
      "properties": {
        "@id": "node/256042844",
        "ele": "2596",
        "name": "Hohe Warte",
        "natural": "peak",
        "summit:cross": "yes",
        "summit:register": "yes",
        "wikidata": "Q1552044",
        "wikipedia": "de:Hohe Warte (Karwendel)"
      },
      "geometry": {
        "type": "Point",
        "coordinates": [
          11.3334901,
          47.3015941
        ]
      },
      "id": "node/256042844"
    },
    {
      "type": "Feature",
      "properties": {
        "@id": "node/256042846",
        "ele": "2889",
        "name": "Vorderseespitze",
        "natural": "peak",
        "source": "GPS",
        "wikidata": "Q508307",
        "wikipedia": "de:Vorderseespitze"
      },
      "geometry": {
        "type": "Point",
        "coordinates": [
          10.3671263,
          47.1848898
        ]
      },
      "id": "node/256042846"
    },
    {
      "type": "Feature",
      "properties": {
        "@id": "node/256042847",
        "ele": "3423",
        "name": "Verpeilspitze",
        "natural": "peak",
        "summit:cross": "yes",
        "wikidata": "Q600983",
        "wikipedia": "de:Verpeilspitze"
      },
      "geometry": {
        "type": "Point",
        "coordinates": [
          10.804949,
          47.0034705
        ]
      },
      "id": "node/256042847"
    },
    {
      "type": "Feature",
      "properties": {
        "@id": "node/256042848",
        "ele": "3087",
        "name": "Hohe Villerspitze",
        "natural": "peak",
        "wikidata": "Q1623545",
        "wikipedia": "de:Hohe Villerspitze"
      },
      "geometry": {
        "type": "Point",
        "coordinates": [
          11.1653884,
          47.1067339
        ]
      },
      "id": "node/256042848"
    },
    {
      "type": "Feature",
      "properties": {
        "@id": "node/256042851",
        "ele": "2127",
        "name": "Wiedersberger Horn",
        "name:zh": "維德斯貝格山",
        "natural": "peak",
        "summit:cross": "yes",
        "summit:register": "yes",
        "wikidata": "Q872713",
        "wikipedia": "de:Wiedersberger Horn"
      },
      "geometry": {
        "type": "Point",
        "coordinates": [
          11.9228776,
          47.361238
        ]
      },
      "id": "node/256042851"
    },
    {
      "type": "Feature",
      "properties": {
        "@id": "node/256042852",
        "ele": "3021",
        "name": "Wildenkogel",
        "natural": "peak",
        "summit:cross": "yes",
        "wikidata": "Q1723033",
        "wikipedia": "de:Wildenkogel"
      },
      "geometry": {
        "type": "Point",
        "coordinates": [
          12.4594679,
          47.1040249
        ]
      },
      "id": "node/256042852"
    },
    {
      "type": "Feature",
      "properties": {
        "@id": "node/256042854",
        "alt_name": "Wetterspitzen",
        "ele": "2746",
        "name": "Südliche Wetterspitze",
        "natural": "peak",
        "wikidata": "Q470068",
        "wikipedia": "de:Wetterspitzen"
      },
      "geometry": {
        "type": "Point",
        "coordinates": [
          10.9703511,
          47.4007961
        ]
      },
      "id": "node/256042854"
    },
    {
      "type": "Feature",
      "properties": {
        "@id": "node/256042861",
        "ele": "2119",
        "name": "Wildseeloder",
        "natural": "peak",
        "summit:cross": "yes",
        "wikidata": "Q488389",
        "wikipedia": "de:Wildseeloder"
      },
      "geometry": {
        "type": "Point",
        "coordinates": [
          12.531461,
          47.4318854
        ]
      },
      "id": "node/256042861"
    },
    {
      "type": "Feature",
      "properties": {
        "@id": "node/256042862",
        "ele": "3015",
        "name": "Wildnörderer",
        "natural": "peak",
        "wikidata": "Q872031",
        "wikipedia": "de:Wildnörderer"
      },
      "geometry": {
        "type": "Point",
        "coordinates": [
          10.6152778,
          46.8913889
        ]
      },
      "id": "node/256042862"
    },
    {
      "type": "Feature",
      "properties": {
        "@id": "node/256042864",
        "ele": "2971",
        "name": "Wildgrat",
        "natural": "peak",
        "source": "GPS",
        "wikidata": "Q871932",
        "wikipedia": "de:Wildgrat"
      },
      "geometry": {
        "type": "Point",
        "coordinates": [
          10.8267113,
          47.1406277
        ]
      },
      "id": "node/256042864"
    },
    {
      "type": "Feature",
      "properties": {
        "@id": "node/256042866",
        "ele": "2306",
        "name": "Kleiner Wilder",
        "natural": "peak",
        "ref:avf": "1452",
        "wikidata": "Q1435439",
        "wikipedia": "de:Kleiner Wilder"
      },
      "geometry": {
        "type": "Point",
        "coordinates": [
          10.386236,
          47.363175
        ]
      },
      "id": "node/256042866"
    },
    {
      "type": "Feature",
      "properties": {
        "@id": "node/256042869",
        "ele": "3062",
        "name": "Zsigmondyspitze",
        "natural": "peak",
        "source": "survey",
        "wikidata": "Q227318",
        "wikipedia": "de:Zsigmondyspitze"
      },
      "geometry": {
        "type": "Point",
        "coordinates": [
          11.8378314,
          47.0504335
        ]
      },
      "id": "node/256042869"
    },
    {
      "type": "Feature",
      "properties": {
        "@id": "node/256042870",
        "ele": "3173",
        "name": "Vordere Grubenwand",
        "natural": "peak",
        "wikidata": "Q1550229",
        "wikipedia": "de:Grubenwand"
      },
      "geometry": {
        "type": "Point",
        "coordinates": [
          11.0860454,
          47.1191845
        ]
      },
      "id": "node/256042870"
    },
    {
      "type": "Feature",
      "properties": {
        "@id": "node/256042874",
        "ele": "2476",
        "name": "Wörner",
        "natural": "peak",
        "wikidata": "Q315922",
        "wikipedia": "de:Wörner (Alpen)"
      },
      "geometry": {
        "type": "Point",
        "coordinates": [
          11.3381365,
          47.4497121
        ]
      },
      "id": "node/256042874"
    },
    {
      "type": "Feature",
      "properties": {
        "@id": "node/256042875",
        "ele": "2562",
        "name": "Zwölferspitze",
        "natural": "peak",
        "wikidata": "Q245225",
        "wikipedia": "de:Zwölferspitze (Stubaier Alpen)"
      },
      "geometry": {
        "type": "Point",
        "coordinates": [
          11.2995344,
          47.0766522
        ]
      },
      "id": "node/256042875"
    },
    {
      "type": "Feature",
      "properties": {
        "@id": "node/256042876",
        "ele": "2776",
        "name": "Großer Zunig",
        "natural": "peak",
        "subject:wikipedia": "de:Zunig",
        "summit:cross": "yes",
        "wikidata": "Q21871384",
        "wikipedia": "de:Großer Zunig"
      },
      "geometry": {
        "type": "Point",
        "coordinates": [
          12.5152465,
          46.9556731
        ]
      },
      "id": "node/256042876"
    },
    {
      "type": "Feature",
      "properties": {
        "@id": "node/256057458",
        "ele": "2813",
        "name": "Gamskogel",
        "natural": "peak",
        "summit:cross": "yes",
        "wikidata": "Q1493291",
        "wikipedia": "de:Gamskogel (Sulztalkamm)"
      },
      "geometry": {
        "type": "Point",
        "coordinates": [
          10.9969684,
          47.0553121
        ]
      },
      "id": "node/256057458"
    },
    {
      "type": "Feature",
      "properties": {
        "@id": "node/264044528",
        "ele": "1747",
        "name": "Wildenkarjoch",
        "natural": "peak"
      },
      "geometry": {
        "type": "Point",
        "coordinates": [
          11.9755772,
          47.6055226
        ]
      },
      "id": "node/264044528"
    },
    {
      "type": "Feature",
      "properties": {
        "@id": "node/266340471",
        "ele": "1746",
        "name": "Heuberg",
        "natural": "peak",
        "wikidata": "Q21877925"
      },
      "geometry": {
        "type": "Point",
        "coordinates": [
          11.9560174,
          47.5119955
        ]
      },
      "id": "node/266340471"
    },
    {
      "type": "Feature",
      "properties": {
        "@id": "node/266412097",
        "ele": "1633",
        "inscription": "Naunspitze 1633 M Ü.D.M. Kreuzerrichtung im Jahre 1989 von der tiroler Bergwacht Ebbs und Umgebung...",
        "name": "Naunspitze",
        "natural": "peak",
        "source:ele": "inscription",
        "summit:cross": "yes",
        "summit:register": "yes",
        "wikidata": "Q875491",
        "wikipedia": "de:Naunspitze"
      },
      "geometry": {
        "type": "Point",
        "coordinates": [
          12.2426926,
          47.609407
        ]
      },
      "id": "node/266412097"
    },
    {
      "type": "Feature",
      "properties": {
        "@id": "node/266412290",
        "ele": "1997",
        "name": "Pyramidenspitze",
        "natural": "peak",
        "source:ele": "Gipfelbuch",
        "summit:cross": "yes",
        "summit:register": "yes",
        "wikidata": "Q873582",
        "wikipedia": "de:Pyramidenspitze"
      },
      "geometry": {
        "type": "Point",
        "coordinates": [
          12.2767442,
          47.6100527
        ]
      },
      "id": "node/266412290"
    },
    {
      "type": "Feature",
      "properties": {
        "@id": "node/268668170",
        "ele": "1972",
        "name": "Krenspitze",
        "natural": "peak"
      },
      "geometry": {
        "type": "Point",
        "coordinates": [
          11.9558915,
          47.6007086
        ]
      },
      "id": "node/268668170"
    },
    {
      "type": "Feature",
      "properties": {
        "@id": "node/268952724",
        "alt_name": "Hinterunnütz",
        "ele": "2007",
        "name": "Hinterunnutz",
        "natural": "peak",
        "wikidata": "Q2496641",
        "wikipedia": "de:Unnütze"
      },
      "geometry": {
        "type": "Point",
        "coordinates": [
          11.734708,
          47.5298593
        ]
      },
      "id": "node/268952724"
    },
    {
      "type": "Feature",
      "properties": {
        "@id": "node/268973925",
        "ele": "1787",
        "name": "Blaubergschneid",
        "natural": "peak"
      },
      "geometry": {
        "type": "Point",
        "coordinates": [
          11.7532551,
          47.5891188
        ]
      },
      "id": "node/268973925"
    },
    {
      "type": "Feature",
      "properties": {
        "@id": "node/268974034",
        "alt_name": "Halserspitze",
        "ele": "1862",
        "name": "Halserspitz",
        "natural": "peak",
        "summit:cross": "yes",
        "summit:register": "yes",
        "wikidata": "Q21871544"
      },
      "geometry": {
        "type": "Point",
        "coordinates": [
          11.7810799,
          47.5911671
        ]
      },
      "id": "node/268974034"
    },
    {
      "type": "Feature",
      "properties": {
        "@id": "node/269562213",
        "ele": "3210",
        "name": "Schneekarspitze",
        "natural": "peak"
      },
      "geometry": {
        "type": "Point",
        "coordinates": [
          12.0930285,
          47.1461011
        ]
      },
      "id": "node/269562213"
    },
    {
      "type": "Feature",
      "properties": {
        "@id": "node/272442691",
        "alt_name": "Tuxegg",
        "ele": "2226",
        "inscription": "Dieses Kreuz wurde vom Unterkaisern Bauer in Ellmau gestiftet, von der Bergrettung Scheffau aufgetragen und vom Hw.H.Pfarrer Moises Hans am 20.9.1976 eingeweiht",
        "name": "Tuxeck",
        "natural": "peak",
        "summit:cross": "yes",
        "summit:register": "yes",
        "wikidata": "Q970398",
        "wikipedia": "de:Tuxeck"
      },
      "geometry": {
        "type": "Point",
        "coordinates": [
          12.2893322,
          47.5523693
        ]
      },
      "id": "node/272442691"
    },
    {
      "type": "Feature",
      "properties": {
        "@id": "node/274582662",
        "alt_name": "Schneidspitze;Schneide",
        "ele": "2009",
        "name": "Schneid",
        "natural": "peak",
        "ref:avf": "1061",
        "summit:cross": "yes",
        "summit:register": "yes",
        "wikidata": "Q2247507",
        "wikipedia": "de:Schneid (Tannheimer Berge)"
      },
      "geometry": {
        "type": "Point",
        "coordinates": [
          10.6449598,
          47.4933672
        ]
      },
      "id": "node/274582662"
    },
    {
      "type": "Feature",
      "properties": {
        "@id": "node/275552924",
        "ele": "2404",
        "loc_name": "Soale",
        "name": "Saile (Nockspitze)",
        "natural": "peak",
        "summit:cross": "yes",
        "summit:register": "yes",
        "wikidata": "Q2212240",
        "wikipedia": "de:Saile (Berg)"
      },
      "geometry": {
        "type": "Point",
        "coordinates": [
          11.3247164,
          47.1920709
        ]
      },
      "id": "node/275552924"
    },
    {
      "type": "Feature",
      "properties": {
        "@id": "node/275552932",
        "ele": "2379",
        "name": "Saile (Nockspitze) Vorgipfel",
        "natural": "peak",
        "summit:cross": "yes",
        "summit:register": "yes"
      },
      "geometry": {
        "type": "Point",
        "coordinates": [
          11.3260473,
          47.1942828
        ]
      },
      "id": "node/275552932"
    },
    {
      "type": "Feature",
      "properties": {
        "@id": "node/275552963",
        "ele": "2206",
        "name": "Spitzmandl",
        "natural": "peak",
        "summit:cross": "yes",
        "summit:register": "stolen",
        "wikidata": "Q21878385"
      },
      "geometry": {
        "type": "Point",
        "coordinates": [
          11.3333826,
          47.1967727
        ]
      },
      "id": "node/275552963"
    },
    {
      "type": "Feature",
      "properties": {
        "@id": "node/276953912",
        "ele": "1962",
        "name": "Abendspitze",
        "natural": "peak",
        "wikidata": "Q21878024",
        "wikipedia": "sv:Abendspitze"
      },
      "geometry": {
        "type": "Point",
        "coordinates": [
          10.6871931,
          47.398542
        ]
      },
      "id": "node/276953912"
    },
    {
      "type": "Feature",
      "properties": {
        "@id": "node/276957455",
        "ele": "1029",
        "name": "Bärenauköpfl",
        "natural": "peak"
      },
      "geometry": {
        "type": "Point",
        "coordinates": [
          10.7229085,
          47.5265576
        ]
      },
      "id": "node/276957455"
    },
    {
      "type": "Feature",
      "properties": {
        "@id": "node/277063950",
        "communication:amateur_radio:sota": "OE/TL-048",
        "communication:amateur_radio:sota:points": "4",
        "ele": "1046",
        "name": "Siebeler",
        "natural": "peak",
        "wikidata": "Q21876616"
      },
      "geometry": {
        "type": "Point",
        "coordinates": [
          10.6918511,
          47.5234374
        ]
      },
      "id": "node/277063950"
    },
    {
      "type": "Feature",
      "properties": {
        "@id": "node/277063951",
        "ele": "1507",
        "name": "Musauer Berg",
        "natural": "peak",
        "wikidata": "Q21876602"
      },
      "geometry": {
        "type": "Point",
        "coordinates": [
          10.6603463,
          47.5224545
        ]
      },
      "id": "node/277063951"
    },
    {
      "type": "Feature",
      "properties": {
        "@id": "node/277063957",
        "ele": "845",
        "name": "Hüttenbichl",
        "natural": "peak"
      },
      "geometry": {
        "type": "Point",
        "coordinates": [
          10.7274715,
          47.5091492
        ]
      },
      "id": "node/277063957"
    },
    {
      "type": "Feature",
      "properties": {
        "@id": "node/277063958",
        "ele": "949",
        "name": "Steineberg",
        "natural": "peak",
        "wikidata": "Q21876655"
      },
      "geometry": {
        "type": "Point",
        "coordinates": [
          10.7241862,
          47.5043721
        ]
      },
      "id": "node/277063958"
    },
    {
      "type": "Feature",
      "properties": {
        "@id": "node/277067149",
        "name": "Zwerchenberg",
        "natural": "peak"
      },
      "geometry": {
        "type": "Point",
        "coordinates": [
          10.852029,
          47.5019262
        ]
      },
      "id": "node/277067149"
    },
    {
      "type": "Feature",
      "properties": {
        "@id": "node/277067150",
        "ele": "1463",
        "name": "Lichteköpfle",
        "natural": "peak"
      },
      "geometry": {
        "type": "Point",
        "coordinates": [
          10.7662136,
          47.4229674
        ]
      },
      "id": "node/277067150"
    },
    {
      "type": "Feature",
      "properties": {
        "@id": "node/277068155",
        "ele": "1314",
        "name": "Gschwendtkopf",
        "name:alt": "Schlögel Berg",
        "natural": "peak"
      },
      "geometry": {
        "type": "Point",
        "coordinates": [
          10.7366608,
          47.4612779
        ]
      },
      "id": "node/277068155"
    },
    {
      "type": "Feature",
      "properties": {
        "@id": "node/277426950",
        "ele": "3014",
        "name": "Kleiner Riffler",
        "natural": "peak",
        "source": "GPS"
      },
      "geometry": {
        "type": "Point",
        "coordinates": [
          10.3651533,
          47.1164873
        ]
      },
      "id": "node/277426950"
    },
    {
      "type": "Feature",
      "properties": {
        "@id": "node/277426951",
        "ele": "3129",
        "name": "Blankahorn",
        "natural": "peak",
        "source": "GPS",
        "wikidata": "Q21873563"
      },
      "geometry": {
        "type": "Point",
        "coordinates": [
          10.3677235,
          47.1142889
        ]
      },
      "id": "node/277426951"
    },
    {
      "type": "Feature",
      "properties": {
        "@id": "node/277492814",
        "name": "Sintenbichl",
        "natural": "peak"
      },
      "geometry": {
        "type": "Point",
        "coordinates": [
          10.7317999,
          47.4826527
        ]
      },
      "id": "node/277492814"
    },
    {
      "type": "Feature",
      "properties": {
        "@id": "node/280575160",
        "ele": "2060",
        "name": "Geierköpfe-Ostgipfel",
        "natural": "peak",
        "wikidata": "Q871973",
        "wikipedia": "de:Geierköpfe"
      },
      "geometry": {
        "type": "Point",
        "coordinates": [
          10.8888673,
          47.5183384
        ]
      },
      "id": "node/280575160"
    },
    {
      "type": "Feature",
      "properties": {
        "@id": "node/280575376",
        "ele": "2143",
        "name": "Geierköpfe-Westgipfel",
        "natural": "peak",
        "wikidata": "Q871973",
        "wikipedia": "de:Geierköpfe"
      },
      "geometry": {
        "type": "Point",
        "coordinates": [
          10.8659693,
          47.5161748
        ]
      },
      "id": "node/280575376"
    },
    {
      "type": "Feature",
      "properties": {
        "@id": "node/281340178",
        "ele": "2580",
        "name": "Ruitelspitze",
        "natural": "peak",
        "wikidata": "Q112158256"
      },